{"type":"FeatureCollection","features":[{"type":"Feature","properties":{"stop_id":"220369","stop_name":"Waratah Mills Light Rail","location_type":0,"wheelchair_boarding":1,"platform_code":"2","routes":[{"route_id":"IWLR-191","agency_id":"LR","route_short_name":"L1","route_long_name":"Dulwich Hill Line","route_desc":"Sydney Light Rail Network","route_type":900,"route_color":"#BE1622","route_text_color":"#FFFFFF"}],"agency_name":"Sydney Light Rail"},"geometry":{"type":"Point","coordinates":[151.14016,-33.89881]}},{"type":"Feature","properties":{"stop_id":"220368","stop_name":"Waratah Mills Light Rail","location_type":0,"wheelchair_boarding":1,"platform_code":"1","routes":[{"route_id":"IWLR-191","agency_id":"LR","route_short_name":"L1","route_long_name":"Dulwich Hill Line","route_desc":"Sydney Light Rail Network","route_type":900,"route_color":"#BE1622","route_text_color":"#FFFFFF"}],"agency_name":"Sydney Light Rail"},"geometry":{"type":"Point","coordinates":[151.14014,-33.89879]}},{"type":"Feature","properties":{"stop_id":"220367","stop_name":"Arlington Light Rail","location_type":0,"wheelchair_boarding":1,"platform_code":"2","routes":[{"route_id":"IWLR-191","agency_id":"LR","route_short_name":"L1","route_long_name":"Dulwich Hill Line","route_desc":"Sydney Light Rail Network","route_type":900,"route_color":"#BE1622","route_text_color":"#FFFFFF"}],"agency_name":"Sydney Light Rail"},"geometry":{"type":"Point","coordinates":[151.13816,-33.90181]}},{"type":"Feature","properties":{"stop_id":"220366","stop_name":"Arlington Light Rail","location_type":0,"wheelchair_boarding":1,"platform_code":"1","routes":[{"route_id":"IWLR-191","agency_id":"LR","route_short_name":"L1","route_long_name":"Dulwich Hill Line","route_desc":"Sydney Light Rail Network","route_type":900,"route_color":"#BE1622","route_text_color":"#FFFFFF"}],"agency_name":"Sydney Light Rail"},"geometry":{"type":"Point","coordinates":[151.13812,-33.90181]}},{"type":"Feature","properties":{"stop_id":"220365","stop_name":"Dulwich Grove Light Rail","location_type":0,"wheelchair_boarding":1,"platform_code":"2","routes":[{"route_id":"IWLR-191","agency_id":"LR","route_short_name":"L1","route_long_name":"Dulwich Hill Line","route_desc":"Sydney Light Rail Network","route_type":900,"route_color":"#BE1622","route_text_color":"#FFFFFF"}],"agency_name":"Sydney Light Rail"},"geometry":{"type":"Point","coordinates":[151.13908,-33.90501]}},{"type":"Feature","properties":{"stop_id":"220364","stop_name":"Dulwich Grove Light Rail","location_type":0,"wheelchair_boarding":1,"platform_code":"1","routes":[{"route_id":"IWLR-191","agency_id":"LR","route_short_name":"L1","route_long_name":"Dulwich Hill Line","route_desc":"Sydney Light Rail Network","route_type":900,"route_color":"#BE1622","route_text_color":"#FFFFFF"}],"agency_name":"Sydney Light Rail"},"geometry":{"type":"Point","coordinates":[151.13905,-33.90502]}},{"type":"Feature","properties":{"stop_id":"220363","stop_name":"Dulwich Hill Light Rail","location_type":0,"wheelchair_boarding":1,"platform_code":"1","routes":[{"route_id":"IWLR-191","agency_id":"LR","route_short_name":"L1","route_long_name":"Dulwich Hill Line","route_desc":"Sydney Light Rail Network","route_type":900,"route_color":"#BE1622","route_text_color":"#FFFFFF"}],"agency_name":"Sydney Light Rail"},"geometry":{"type":"Point","coordinates":[151.14011,-33.91033]}},{"type":"Feature","properties":{"stop_id":"204994","stop_name":"Lewisham West Light Rail","location_type":0,"wheelchair_boarding":1,"platform_code":"2","routes":[{"route_id":"IWLR-191","agency_id":"LR","route_short_name":"L1","route_long_name":"Dulwich Hill Line","route_desc":"Sydney Light Rail Network","route_type":900,"route_color":"#BE1622","route_text_color":"#FFFFFF"}],"agency_name":"Sydney Light Rail"},"geometry":{"type":"Point","coordinates":[151.14357,-33.89365]}},{"type":"Feature","properties":{"stop_id":"204993","stop_name":"Lewisham West Light Rail","location_type":0,"wheelchair_boarding":1,"platform_code":"1","routes":[{"route_id":"IWLR-191","agency_id":"LR","route_short_name":"L1","route_long_name":"Dulwich Hill Line","route_desc":"Sydney Light Rail Network","route_type":900,"route_color":"#BE1622","route_text_color":"#FFFFFF"}],"agency_name":"Sydney Light Rail"},"geometry":{"type":"Point","coordinates":[151.14324,-33.89399]}},{"type":"Feature","properties":{"stop_id":"2040115","stop_name":"Lilyfield Light Rail","location_type":0,"wheelchair_boarding":1,"platform_code":"1","routes":[{"route_id":"IWLR-191","agency_id":"LR","route_short_name":"L1","route_long_name":"Dulwich Hill Line","route_desc":"Sydney Light Rail Network","route_type":900,"route_color":"#BE1622","route_text_color":"#FFFFFF"}],"agency_name":"Sydney Light Rail"},"geometry":{"type":"Point","coordinates":[151.16511,-33.8741]}},{"type":"Feature","properties":{"stop_id":"2040114","stop_name":"Leichhardt North Light Rail","location_type":0,"wheelchair_boarding":1,"platform_code":"2","routes":[{"route_id":"IWLR-191","agency_id":"LR","route_short_name":"L1","route_long_name":"Dulwich Hill Line","route_desc":"Sydney Light Rail Network","route_type":900,"route_color":"#BE1622","route_text_color":"#FFFFFF"}],"agency_name":"Sydney Light Rail"},"geometry":{"type":"Point","coordinates":[151.15448,-33.87498]}},{"type":"Feature","properties":{"stop_id":"2040113","stop_name":"Leichhardt North Light Rail","location_type":0,"wheelchair_boarding":1,"platform_code":"1","routes":[{"route_id":"IWLR-191","agency_id":"LR","route_short_name":"L1","route_long_name":"Dulwich Hill Line","route_desc":"Sydney Light Rail Network","route_type":900,"route_color":"#BE1622","route_text_color":"#FFFFFF"}],"agency_name":"Sydney Light Rail"},"geometry":{"type":"Point","coordinates":[151.15387,-33.87498]}},{"type":"Feature","properties":{"stop_id":"2040112","stop_name":"Hawthorne Light Rail","location_type":0,"wheelchair_boarding":1,"platform_code":"2","routes":[{"route_id":"IWLR-191","agency_id":"LR","route_short_name":"L1","route_long_name":"Dulwich Hill Line","route_desc":"Sydney Light Rail Network","route_type":900,"route_color":"#BE1622","route_text_color":"#FFFFFF"}],"agency_name":"Sydney Light Rail"},"geometry":{"type":"Point","coordinates":[151.14731,-33.87934]}},{"type":"Feature","properties":{"stop_id":"2040111","stop_name":"Hawthorne Light Rail","location_type":0,"wheelchair_boarding":1,"platform_code":"1","routes":[{"route_id":"IWLR-191","agency_id":"LR","route_short_name":"L1","route_long_name":"Dulwich Hill Line","route_desc":"Sydney Light Rail Network","route_type":900,"route_color":"#BE1622","route_text_color":"#FFFFFF"}],"agency_name":"Sydney Light Rail"},"geometry":{"type":"Point","coordinates":[151.14713,-33.87972]}},{"type":"Feature","properties":{"stop_id":"2040110","stop_name":"Marion Light Rail","location_type":0,"wheelchair_boarding":1,"platform_code":"2","routes":[{"route_id":"IWLR-191","agency_id":"LR","route_short_name":"L1","route_long_name":"Dulwich Hill Line","route_desc":"Sydney Light Rail Network","route_type":900,"route_color":"#BE1622","route_text_color":"#FFFFFF"}],"agency_name":"Sydney Light Rail"},"geometry":{"type":"Point","coordinates":[151.14514,-33.88385]}},{"type":"Feature","properties":{"stop_id":"2040109","stop_name":"Marion Light Rail","location_type":0,"wheelchair_boarding":1,"platform_code":"1","routes":[{"route_id":"IWLR-191","agency_id":"LR","route_short_name":"L1","route_long_name":"Dulwich Hill Line","route_desc":"Sydney Light Rail Network","route_type":900,"route_color":"#BE1622","route_text_color":"#FFFFFF"}],"agency_name":"Sydney Light Rail"},"geometry":{"type":"Point","coordinates":[151.14511,-33.88385]}},{"type":"Feature","properties":{"stop_id":"2040108","stop_name":"Taverners Hill Light Rail","location_type":0,"wheelchair_boarding":1,"platform_code":"2","routes":[{"route_id":"IWLR-191","agency_id":"LR","route_short_name":"L1","route_long_name":"Dulwich Hill Line","route_desc":"Sydney Light Rail Network","route_type":900,"route_color":"#BE1622","route_text_color":"#FFFFFF"}],"agency_name":"Sydney Light Rail"},"geometry":{"type":"Point","coordinates":[151.1453,-33.88871]}},{"type":"Feature","properties":{"stop_id":"2040107","stop_name":"Taverners Hill Light Rail","location_type":0,"wheelchair_boarding":1,"platform_code":"1","routes":[{"route_id":"IWLR-191","agency_id":"LR","route_short_name":"L1","route_long_name":"Dulwich Hill Line","route_desc":"Sydney Light Rail Network","route_type":900,"route_color":"#BE1622","route_text_color":"#FFFFFF"}],"agency_name":"Sydney Light Rail"},"geometry":{"type":"Point","coordinates":[151.14524,-33.8893]}},{"type":"Feature","properties":{"stop_id":"2040101","stop_name":"Lilyfield Light Rail","location_type":0,"wheelchair_boarding":1,"platform_code":"2","routes":[{"route_id":"IWLR-191","agency_id":"LR","route_short_name":"L1","route_long_name":"Dulwich Hill Line","route_desc":"Sydney Light Rail Network","route_type":900,"route_color":"#BE1622","route_text_color":"#FFFFFF"}],"agency_name":"Sydney Light Rail"},"geometry":{"type":"Point","coordinates":[151.16485,-33.87417]}},{"type":"Feature","properties":{"stop_id":"203840","stop_name":"Rozelle Bay Light Rail","location_type":0,"wheelchair_boarding":1,"platform_code":"2","routes":[{"route_id":"IWLR-191","agency_id":"LR","route_short_name":"L1","route_long_name":"Dulwich Hill Line","route_desc":"Sydney Light Rail Network","route_type":900,"route_color":"#BE1622","route_text_color":"#FFFFFF"}],"agency_name":"Sydney Light Rail"},"geometry":{"type":"Point","coordinates":[151.17272,-33.87187]}},{"type":"Feature","properties":{"stop_id":"203839","stop_name":"Rozelle Bay Light Rail","location_type":0,"wheelchair_boarding":1,"platform_code":"1","routes":[{"route_id":"IWLR-191","agency_id":"LR","route_short_name":"L1","route_long_name":"Dulwich Hill Line","route_desc":"Sydney Light Rail Network","route_type":900,"route_color":"#BE1622","route_text_color":"#FFFFFF"}],"agency_name":"Sydney Light Rail"},"geometry":{"type":"Point","coordinates":[151.1727,-33.87182]}},{"type":"Feature","properties":{"stop_id":"203782","stop_name":"Glebe Light Rail","location_type":0,"wheelchair_boarding":1,"platform_code":"2","routes":[{"route_id":"IWLR-191","agency_id":"LR","route_short_name":"L1","route_long_name":"Dulwich Hill Line","route_desc":"Sydney Light Rail Network","route_type":900,"route_color":"#BE1622","route_text_color":"#FFFFFF"}],"agency_name":"Sydney Light Rail"},"geometry":{"type":"Point","coordinates":[151.18741,-33.87723]}},{"type":"Feature","properties":{"stop_id":"203781","stop_name":"Glebe Light Rail","location_type":0,"wheelchair_boarding":1,"platform_code":"1","routes":[{"route_id":"IWLR-191","agency_id":"LR","route_short_name":"L1","route_long_name":"Dulwich Hill Line","route_desc":"Sydney Light Rail Network","route_type":900,"route_color":"#BE1622","route_text_color":"#FFFFFF"}],"agency_name":"Sydney Light Rail"},"geometry":{"type":"Point","coordinates":[151.18736,-33.87719]}},{"type":"Feature","properties":{"stop_id":"203780","stop_name":"Jubilee Park Light Rail","location_type":0,"wheelchair_boarding":1,"platform_code":"2","routes":[{"route_id":"IWLR-191","agency_id":"LR","route_short_name":"L1","route_long_name":"Dulwich Hill Line","route_desc":"Sydney Light Rail Network","route_type":900,"route_color":"#BE1622","route_text_color":"#FFFFFF"}],"agency_name":"Sydney Light Rail"},"geometry":{"type":"Point","coordinates":[151.1787,-33.87544]}},{"type":"Feature","properties":{"stop_id":"203779","stop_name":"Jubilee Park Light Rail","location_type":0,"wheelchair_boarding":1,"platform_code":"1","routes":[{"route_id":"IWLR-191","agency_id":"LR","route_short_name":"L1","route_long_name":"Dulwich Hill Line","route_desc":"Sydney Light Rail Network","route_type":900,"route_color":"#BE1622","route_text_color":"#FFFFFF"}],"agency_name":"Sydney Light Rail"},"geometry":{"type":"Point","coordinates":[151.17876,-33.87539]}},{"type":"Feature","properties":{"stop_id":"200944","stop_name":"Pyrmont Bay Light Rail","location_type":0,"wheelchair_boarding":1,"platform_code":"2","routes":[{"route_id":"IWLR-191","agency_id":"LR","route_short_name":"L1","route_long_name":"Dulwich Hill Line","route_desc":"Sydney Light Rail Network","route_type":900,"route_color":"#BE1622","route_text_color":"#FFFFFF"}],"agency_name":"Sydney Light Rail"},"geometry":{"type":"Point","coordinates":[151.19767,-33.86938]}},{"type":"Feature","properties":{"stop_id":"200943","stop_name":"Pyrmont Bay Light Rail","location_type":0,"wheelchair_boarding":1,"platform_code":"1","routes":[{"route_id":"IWLR-191","agency_id":"LR","route_short_name":"L1","route_long_name":"Dulwich Hill Line","route_desc":"Sydney Light Rail Network","route_type":900,"route_color":"#BE1622","route_text_color":"#FFFFFF"}],"agency_name":"Sydney Light Rail"},"geometry":{"type":"Point","coordinates":[151.19768,-33.86918]}},{"type":"Feature","properties":{"stop_id":"200942","stop_name":"The Star Light Rail","location_type":0,"wheelchair_boarding":1,"platform_code":"2","routes":[{"route_id":"IWLR-191","agency_id":"LR","route_short_name":"L1","route_long_name":"Dulwich Hill Line","route_desc":"Sydney Light Rail Network","route_type":900,"route_color":"#BE1622","route_text_color":"#FFFFFF"}],"agency_name":"Sydney Light Rail"},"geometry":{"type":"Point","coordinates":[151.19511,-33.86747]}},{"type":"Feature","properties":{"stop_id":"200941","stop_name":"The Star Light Rail","location_type":0,"wheelchair_boarding":1,"platform_code":"1","routes":[{"route_id":"IWLR-191","agency_id":"LR","route_short_name":"L1","route_long_name":"Dulwich Hill Line","route_desc":"Sydney Light Rail Network","route_type":900,"route_color":"#BE1622","route_text_color":"#FFFFFF"}],"agency_name":"Sydney Light Rail"},"geometry":{"type":"Point","coordinates":[151.19511,-33.8674]}},{"type":"Feature","properties":{"stop_id":"200940","stop_name":"John Street Square Light Rail","location_type":0,"wheelchair_boarding":1,"platform_code":"2","routes":[{"route_id":"IWLR-191","agency_id":"LR","route_short_name":"L1","route_long_name":"Dulwich Hill Line","route_desc":"Sydney Light Rail Network","route_type":900,"route_color":"#BE1622","route_text_color":"#FFFFFF"}],"agency_name":"Sydney Light Rail"},"geometry":{"type":"Point","coordinates":[151.19205,-33.86744]}},{"type":"Feature","properties":{"stop_id":"200939","stop_name":"John Street Square Light Rail","location_type":0,"wheelchair_boarding":1,"platform_code":"1","routes":[{"route_id":"IWLR-191","agency_id":"LR","route_short_name":"L1","route_long_name":"Dulwich Hill Line","route_desc":"Sydney Light Rail Network","route_type":900,"route_color":"#BE1622","route_text_color":"#FFFFFF"}],"agency_name":"Sydney Light Rail"},"geometry":{"type":"Point","coordinates":[151.19205,-33.86738]}},{"type":"Feature","properties":{"stop_id":"200938","stop_name":"Fish Market Light Rail","location_type":0,"wheelchair_boarding":1,"platform_code":"2","routes":[{"route_id":"IWLR-191","agency_id":"LR","route_short_name":"L1","route_long_name":"Dulwich Hill Line","route_desc":"Sydney Light Rail Network","route_type":900,"route_color":"#BE1622","route_text_color":"#FFFFFF"}],"agency_name":"Sydney Light Rail"},"geometry":{"type":"Point","coordinates":[151.1925,-33.87094]}},{"type":"Feature","properties":{"stop_id":"200937","stop_name":"Fish Market Light Rail","location_type":0,"wheelchair_boarding":1,"platform_code":"1","routes":[{"route_id":"IWLR-191","agency_id":"LR","route_short_name":"L1","route_long_name":"Dulwich Hill Line","route_desc":"Sydney Light Rail Network","route_type":900,"route_color":"#BE1622","route_text_color":"#FFFFFF"}],"agency_name":"Sydney Light Rail"},"geometry":{"type":"Point","coordinates":[151.19232,-33.87088]}},{"type":"Feature","properties":{"stop_id":"200936","stop_name":"Wentworth Park Light Rail","location_type":0,"wheelchair_boarding":1,"platform_code":"2","routes":[{"route_id":"IWLR-191","agency_id":"LR","route_short_name":"L1","route_long_name":"Dulwich Hill Line","route_desc":"Sydney Light Rail Network","route_type":900,"route_color":"#BE1622","route_text_color":"#FFFFFF"}],"agency_name":"Sydney Light Rail"},"geometry":{"type":"Point","coordinates":[151.19406,-33.87441]}},{"type":"Feature","properties":{"stop_id":"200935","stop_name":"Wentworth Park Light Rail","location_type":0,"wheelchair_boarding":1,"platform_code":"1","routes":[{"route_id":"IWLR-191","agency_id":"LR","route_short_name":"L1","route_long_name":"Dulwich Hill Line","route_desc":"Sydney Light Rail Network","route_type":900,"route_color":"#BE1622","route_text_color":"#FFFFFF"}],"agency_name":"Sydney Light Rail"},"geometry":{"type":"Point","coordinates":[151.19401,-33.87439]}},{"type":"Feature","properties":{"stop_id":"2000265","stop_name":"Exhibition Centre Light Rail","location_type":0,"wheelchair_boarding":1,"platform_code":"2","routes":[{"route_id":"IWLR-191","agency_id":"LR","route_short_name":"L1","route_long_name":"Dulwich Hill Line","route_desc":"Sydney Light Rail Network","route_type":900,"route_color":"#BE1622","route_text_color":"#FFFFFF"}],"agency_name":"Sydney Light Rail"},"geometry":{"type":"Point","coordinates":[151.1996,-33.87719]}},{"type":"Feature","properties":{"stop_id":"2000264","stop_name":"Exhibition Centre Light Rail","location_type":0,"wheelchair_boarding":1,"platform_code":"1","routes":[{"route_id":"IWLR-191","agency_id":"LR","route_short_name":"L1","route_long_name":"Dulwich Hill Line","route_desc":"Sydney Light Rail Network","route_type":900,"route_color":"#BE1622","route_text_color":"#FFFFFF"}],"agency_name":"Sydney Light Rail"},"geometry":{"type":"Point","coordinates":[151.19965,-33.87721]}},{"type":"Feature","properties":{"stop_id":"2000263","stop_name":"Convention Centre Light Rail","location_type":0,"wheelchair_boarding":1,"platform_code":"2","routes":[{"route_id":"IWLR-191","agency_id":"LR","route_short_name":"L1","route_long_name":"Dulwich Hill Line","route_desc":"Sydney Light Rail Network","route_type":900,"route_color":"#BE1622","route_text_color":"#FFFFFF"}],"agency_name":"Sydney Light Rail"},"geometry":{"type":"Point","coordinates":[151.19808,-33.87257]}},{"type":"Feature","properties":{"stop_id":"2000262","stop_name":"Convention Centre Light Rail","location_type":0,"wheelchair_boarding":1,"platform_code":"1","routes":[{"route_id":"IWLR-191","agency_id":"LR","route_short_name":"L1","route_long_name":"Dulwich Hill Line","route_desc":"Sydney Light Rail Network","route_type":900,"route_color":"#BE1622","route_text_color":"#FFFFFF"}],"agency_name":"Sydney Light Rail"},"geometry":{"type":"Point","coordinates":[151.19812,-33.87263]}},{"type":"Feature","properties":{"stop_id":"2000257","stop_name":"Central Grand Concourse Light Rail","location_type":0,"wheelchair_boarding":1,"platform_code":"1","routes":[{"route_id":"IWLR-191","agency_id":"LR","route_short_name":"L1","route_long_name":"Dulwich Hill Line","route_desc":"Sydney Light Rail Network","route_type":900,"route_color":"#BE1622","route_text_color":"#FFFFFF"}],"agency_name":"Sydney Light Rail"},"geometry":{"type":"Point","coordinates":[151.20672,-33.88238]}},{"type":"Feature","properties":{"stop_id":"2000256","stop_name":"Capitol Square Light Rail","location_type":0,"wheelchair_boarding":1,"platform_code":"2","routes":[{"route_id":"IWLR-191","agency_id":"LR","route_short_name":"L1","route_long_name":"Dulwich Hill Line","route_desc":"Sydney Light Rail Network","route_type":900,"route_color":"#BE1622","route_text_color":"#FFFFFF"}],"agency_name":"Sydney Light Rail"},"geometry":{"type":"Point","coordinates":[151.20562,-33.87978]}},{"type":"Feature","properties":{"stop_id":"2000255","stop_name":"Capitol Square Light Rail","location_type":0,"wheelchair_boarding":1,"platform_code":"1","routes":[{"route_id":"IWLR-191","agency_id":"LR","route_short_name":"L1","route_long_name":"Dulwich Hill Line","route_desc":"Sydney Light Rail Network","route_type":900,"route_color":"#BE1622","route_text_color":"#FFFFFF"}],"agency_name":"Sydney Light Rail"},"geometry":{"type":"Point","coordinates":[151.20565,-33.87976]}},{"type":"Feature","properties":{"stop_id":"2000254","stop_name":"Paddy's Markets Light Rail","location_type":0,"wheelchair_boarding":1,"platform_code":"2","routes":[{"route_id":"IWLR-191","agency_id":"LR","route_short_name":"L1","route_long_name":"Dulwich Hill Line","route_desc":"Sydney Light Rail Network","route_type":900,"route_color":"#BE1622","route_text_color":"#FFFFFF"}],"agency_name":"Sydney Light Rail"},"geometry":{"type":"Point","coordinates":[151.20264,-33.87933]}},{"type":"Feature","properties":{"stop_id":"2000253","stop_name":"Paddy's Markets Light Rail","location_type":0,"wheelchair_boarding":1,"platform_code":"1","routes":[{"route_id":"IWLR-191","agency_id":"LR","route_short_name":"L1","route_long_name":"Dulwich Hill Line","route_desc":"Sydney Light Rail Network","route_type":900,"route_color":"#BE1622","route_text_color":"#FFFFFF"}],"agency_name":"Sydney Light Rail"},"geometry":{"type":"Point","coordinates":[151.20273,-33.87931]}}]}